{"success":true,"result":{"include_total":true,"offset":0,"records_format":"objects","resource_id":"a1b4714b-3b75-4ff8-a8f2-cc377e4eaa0f","total_estimation_threshold":null,"records":[{"_id":1,"sno":"2001","sna":"中央大學圖書館","tot":"14","sbi":"8","sarea":"中壢區","mday":"20240807014340","lat":"24.968128","lng":"121.194666","ar":"中大路300號(中央大學校內圖書館前)","sareaen":"Zhongli Dist.","snaen":"National Central University Library","aren":"No.300, Zhongda Rd.","bemp":"6","act":"1"},{"_id":2,"sno":"2002","sna":"中壢高中","tot":"12","sbi":"4","sarea":"中壢區","mday":"20240807014318","lat":"24.960815","lng":"121.212038","ar":"中央西路二段215號對面人行道","sareaen":"Zhongli Dist.","snaen":"Jhungli Senior High School","aren":"No.215, Sec. 2, Zhongyang W. Rd. (opposite)","bemp":"8","act":"1"},{"_id":3,"sno":"2009","sna":"翠堤橋","tot":"12","sbi":"2","sarea":"中壢區","mday":"20240807014337","lat":"24.953265","lng":"121.215878","ar":"義民路105號旁人行道","sareaen":"Zhongli Dist.","snaen":"Cuiti Bridge","aren":"No.105, Yimin Rd.","bemp":"10","act":"1"},{"_id":4,"sno":"2019","sna":"民族公園","tot":"12","sbi":"2","sarea":"桃園區","mday":"20240807014337","lat":"24.995946","lng":"121.306636","ar":"汕頭街15號對面民族公園旁人行道","sareaen":"Taoyuan Dist.","snaen":"Minzu Park","aren":"No.15, Shantou St.(opposite)","bemp":"9","act":"1"},{"_id":5,"sno":"2020","sna":"朝陽森林公園","tot":"10","sbi":"7","sarea":"桃園區","mday":"20240807014336","lat":"24.999107","lng":"121.312820","ar":"朝陽街104-108號對面機車停車場","sareaen":"Taoyuan Dist.","snaen":"Chaoyang Park","aren":"No.104 to No.108, Chaoyang St.","bemp":"3","act":"1"},{"_id":6,"sno":"2021","sna":"桃園延平公園","tot":"18","sbi":"4","sarea":"桃園區","mday":"20240807014337","lat":"24.980482","lng":"121.314998","ar":"大豐路187號對面延平公園旁人行道","sareaen":"Taoyuan Dist.","snaen":"Taoyuan Yenping Park","aren":"No.187, Dafeng Rd.(opposite)","bemp":"14","act":"1"},{"_id":7,"sno":"2022","sna":"福豐公園","tot":"8","sbi":"3","sarea":"桃園區","mday":"20240807014341","lat":"24.985652","lng":"121.311513","ar":"建國路昆明路口(西北側)","sareaen":"Taoyuan Dist.","snaen":"Fufeng Park","aren":"Jianguo Rd./Kunming Rd.","bemp":"4","act":"1"},{"_id":8,"sno":"2023","sna":"桃園火車站(後站)","tot":"14","sbi":"2","sarea":"桃園區","mday":"20240807014343","lat":"24.987795","lng":"121.314279","ar":"延平路26號對面人行道","sareaen":"Taoyuan Dist.","snaen":"TRA Taoyuan Station (Rear)","aren":"No.26, Yanping Rd.(opposite)","bemp":"12","act":"1"},{"_id":9,"sno":"2024","sna":"桃園建國公園","tot":"8","sbi":"3","sarea":"桃園區","mday":"20240807014344","lat":"24.987418","lng":"121.317759","ar":"桃鶯路93號對面建國公園旁人行道","sareaen":"Taoyuan Dist.","snaen":"Taoyuan Jianguo Park","aren":"No.93, Taoying Rd. (opposite)","bemp":"4","act":"1"},{"_id":10,"sno":"2025","sna":"桃園陽明高中","tot":"20","sbi":"1","sarea":"桃園區","mday":"20240807014339","lat":"24.980404","lng":"121.303296","ar":"德壽街8號前方人行道","sareaen":"Taoyuan Dist.","snaen":"Taoyuan Municipal Yang Ming High School","aren":"No.8, Deshou St.","bemp":"19","act":"1"},{"_id":11,"sno":"2026","sna":"夢幻公園","tot":"12","sbi":"2","sarea":"中壢區","mday":"20240807014334","lat":"24.962541","lng":"121.261596","ar":"榮安十三街榮民路口(西南側)","sareaen":"Zhongli Dist.","snaen":"Dream Park","aren":"Rongan 13th St./Rongmin Rd.","bemp":"10","act":"1"},{"_id":12,"sno":"2027","sna":"內壢自強公園","tot":"12","sbi":"2","sarea":"中壢區","mday":"20240807014333","lat":"24.967686","lng":"121.259279","ar":"強國路46號旁自強公園側人行道","sareaen":"Zhongli Dist.","snaen":"Neili Ziqiang Park","aren":"No.46, Qiangguo Rd.","bemp":"9","act":"1"},{"_id":13,"sno":"2029","sna":"元智大學","tot":"22","sbi":"3","sarea":"中壢區","mday":"20240807014319","lat":"24.970346","lng":"121.263249","ar":"遠東路135號(面元智大學左側人行道)","sareaen":"Zhongli Dist.","snaen":"Yuan Ze University","aren":"No.135, Yuandong Rd.","bemp":"18","act":"1"},{"_id":14,"sno":"2030","sna":"同德國中","tot":"10","sbi":"7","sarea":"桃園區","mday":"20240807014340","lat":"25.016130","lng":"121.293908","ar":"南平路479號對面同德國中旁人行道","sareaen":"Taoyuan Dist.","snaen":"Tongde Junior High School","aren":"No.479, Nanping Rd. (opposite)","bemp":"2","act":"1"},{"_id":15,"sno":"2031","sna":"桃園展演中心(同德六街)","tot":"12","sbi":"2","sarea":"桃園區","mday":"20240807014340","lat":"25.016551","lng":"121.299970","ar":"同德六街藝文二街口東南側廣場","sareaen":"Taoyuan Dist.","snaen":"Taoyuan Arts Center(Tongde 6th St.)","aren":"Tongde 6th St./Yiwen 2nd St.","bemp":"10","act":"1"},{"_id":16,"sno":"2032","sna":"東溪綠園","tot":"16","sbi":"10","sarea":"桃園區","mday":"20240807014344","lat":"24.993122","lng":"121.313558","ar":"成功路二段1號旁小公園","sareaen":"Taoyuan Dist.","snaen":"Dongxi Greens","aren":"No.1, Sec. 2, Chenggong Rd.","bemp":"6","act":"1"},{"_id":17,"sno":"2033","sna":"桃園市立圖書館平鎮分館","tot":"12","sbi":"1","sarea":"平鎮區","mday":"20240807014326","lat":"24.940031","lng":"121.218322","ar":"環南路三段88號右前方人行道","sareaen":"Pingzhen Dist.","snaen":"Taoyuan Public Library Pingzhen Branch","aren":"No.88, Sec. 3, Huannan Rd.","bemp":"11","act":"1"},{"_id":18,"sno":"2034","sna":"新勢公園","tot":"10","sbi":"3","sarea":"平鎮區","mday":"20240807014340","lat":"24.950692","lng":"121.216686","ar":"延平路一段181號對面新勢公園旁人行道","sareaen":"Pingzhen Dist.","snaen":"Xinshi Park","aren":"No.181, Sec. 1, Yanping Rd.(opposite)","bemp":"7","act":"1"},{"_id":19,"sno":"2035","sna":"三民運動公園","tot":"16","sbi":"4","sarea":"桃園區","mday":"20240807014323","lat":"25.000577","lng":"121.319691","ar":"三民路一段200號前方人行道","sareaen":"Taoyuan Dist.","snaen":"Sanmin Sports Park","aren":"No.200, Sec. 1, Sanmin Rd.","bemp":"11","act":"1"},{"_id":20,"sno":"2037","sna":"桃園展演中心(南平路)","tot":"10","sbi":"3","sarea":"桃園區","mday":"20240807014335","lat":"25.018038","lng":"121.298235","ar":"南平路336號對面人行道","sareaen":"Taoyuan Dist.","snaen":"Taoyuan Arts Center (Nanping Rd.)","aren":"No.336, Nanping Rd.(opposite)","bemp":"6","act":"1"},{"_id":21,"sno":"2038","sna":"國強公園","tot":"14","sbi":"2","sarea":"桃園區","mday":"20240807014337","lat":"24.993077","lng":"121.289327","ar":"國強一街益壽一街口(東北側人行道)","sareaen":"Taoyuan Dist.","snaen":"Guochiang Park","aren":"Guociang 1st St./Yishou 1st St.","bemp":"11","act":"1"},{"_id":22,"sno":"2039","sna":"新埔公園","tot":"8","sbi":"2","sarea":"桃園區","mday":"20240807014341","lat":"25.015195","lng":"121.303725","ar":"同安街203號對面人行道","sareaen":"Taoyuan Dist.","snaen":"Xinpu Park","aren":"No.203, Tong&rsquo;an St.(opposite)","bemp":"5","act":"1"},{"_id":23,"sno":"2041","sna":"桃園市立圖書館大林分館","tot":"12","sbi":"7","sarea":"桃園區","mday":"20240807014328","lat":"24.977812","lng":"121.321076","ar":"樹仁二街37號後方人行道","sareaen":"Taoyuan Dist.","snaen":"Taoyuan Public Library Dalin Branch","aren":"No.37, Shuren 2nd St.","bemp":"5","act":"1"},{"_id":24,"sno":"2042","sna":"桃園火車站(前站)","tot":"14","sbi":"4","sarea":"桃園區","mday":"20240807014326","lat":"24.989618","lng":"121.313022","ar":"中正路1號面火車站右方人行道","sareaen":"Taoyuan Dist.","snaen":"TRA Taoyuan Station (Front)","aren":"No.1, Zhongzheng Rd.","bemp":"10","act":"1"},{"_id":25,"sno":"2043","sna":"瑞慶公園","tot":"12","sbi":"4","sarea":"桃園區","mday":"20240807014343","lat":"25.019129","lng":"121.292954","ar":"中埔一街362號對面瑞慶公園旁人行道","sareaen":"Taoyuan Dist.","snaen":"Ruiching Park","aren":"No.362, Zhongpu 1st St.(opposite)","bemp":"8","act":"1"},{"_id":26,"sno":"2044","sna":"中寧公園","tot":"6","sbi":"3","sarea":"桃園區","mday":"20240807014343","lat":"25.009993","lng":"121.299560","ar":"同德二街177號對面中寧公園旁人行道","sareaen":"Taoyuan Dist.","snaen":"Zhongning Park","aren":"No.177, Tongde 2nd St.(opposite)","bemp":"3","act":"1"},{"_id":27,"sno":"2045","sna":"陽明運動公園","tot":"8","sbi":"2","sarea":"桃園區","mday":"20240807014341","lat":"24.982285","lng":"121.308126","ar":"介壽路199號前方人行道","sareaen":"Taoyuan Dist.","snaen":"Yangming Sports Park","aren":"No.199, Jieshou Rd.","bemp":"5","act":"1"},{"_id":28,"sno":"2046","sna":"大業國小","tot":"12","sbi":"4","sarea":"桃園區","mday":"20240807014324","lat":"25.006896","lng":"121.314760","ar":"民光東路280號對面人行道","sareaen":"Taoyuan Dist.","snaen":"Da Yie Elementary School","aren":"No.280, Minguang E. Rd.(opposite)","bemp":"7","act":"1"},{"_id":29,"sno":"2047","sna":"大有國中","tot":"12","sbi":"2","sarea":"桃園區","mday":"20240807014342","lat":"25.008585","lng":"121.319869","ar":"大有路民光東路口西北側人行道","sareaen":"Taoyuan Dist.","snaen":"Da You Junior High School","aren":"Dayou Rd./Minguang E. Rd.","bemp":"10","act":"1"},{"_id":30,"sno":"2049","sna":"吉林路吉利六街口","tot":"10","sbi":"4","sarea":"中壢區","mday":"20240807014322","lat":"24.982900","lng":"121.250406","ar":"吉林路吉利六街口東南側人行道","sareaen":"Zhongli Dist.","snaen":"Jilin Rd. &amp; Jili 6th St. Intersection","aren":"Jilin Rd./Jili 6th St.","bemp":"6","act":"1"},{"_id":31,"sno":"2054","sna":"桃園龍岡公園","tot":"8","sbi":"2","sarea":"桃園區","mday":"20240807014331","lat":"24.99039","lng":"121.281064","ar":"國豐一街101號對面龍岡公園旁人行道","sareaen":"Taoyuan Dist.","snaen":"Taoyuan Longgang Park","aren":"No.101, Guofeng 1st St.(opposite)","bemp":"5","act":"1"},{"_id":32,"sno":"2055","sna":"桃園龍鳳公園","tot":"20","sbi":"4","sarea":"桃園區","mday":"20240807014329","lat":"24.989688","lng":"121.278943","ar":"國豐五街51號對面龍鳳公園旁人行道","sareaen":"Taoyuan Dist.","snaen":"Taoyuan Longfeng Park","aren":"No.51, Guofeng 5rd St.(opposite)","bemp":"16","act":"1"},{"_id":33,"sno":"2056","sna":"桃園市政府文化局","tot":"12","sbi":"1","sarea":"桃園區","mday":"20240807014322","lat":"24.994184","lng":"121.300537","ar":"縣府路21號面文化局左側路側","sareaen":"Taoyuan Dist.","snaen":"Departmaent of Cultural Affairs, Taoyuan","aren":"No.21, Xianfu Rd.","bemp":"11","act":"1"},{"_id":34,"sno":"2057","sna":"成功春日路口","tot":"22","sbi":"6","sarea":"桃園區","mday":"20240807014318","lat":"24.994177","lng":"121.317130","ar":"成功路二段春日路口東南側人行道","sareaen":"Taoyuan Dist.","snaen":"Chenggong &amp; Chunri Rd. Intersection","aren":"Chenggong Rd./Chunri Rd.","bemp":"16","act":"1"},{"_id":35,"sno":"2059","sna":"忠福廣場","tot":"10","sbi":"2","sarea":"中壢區","mday":"20240807014318","lat":"24.971805","lng":"121.227697","ar":"南園二路292號對面忠福廣場旁人行道","sareaen":"Zhongli Dist.","snaen":"Zhongfu Square","aren":"No.292, Nanyuan 2nd Rd.(opposite)","bemp":"6","act":"1"},{"_id":36,"sno":"2060","sna":"健行科技大學","tot":"16","sbi":"1","sarea":"中壢區","mday":"20240807014340","lat":"24.946778","lng":"121.229011","ar":"健行路229號(商學大樓後人行道)","sareaen":"Zhongli Dist.","snaen":"Chien Hsin University of Science and Technology","aren":"No.229, Jianxing Rd.","bemp":"15","act":"1"},{"_id":37,"sno":"2061","sna":"啟英高中","tot":"12","sbi":"1","sarea":"中壢區","mday":"20240807014323","lat":"24.975610","lng":"121.234553","ar":"西園路76號對面啟英高中旁人行道","sareaen":"Zhongli Dist.","snaen":"Chi-Ying Senior High School","aren":"No.76, Xiyuan Rd.(opposite)","bemp":"11","act":"1"},{"_id":38,"sno":"2062","sna":"內壢文化公園","tot":"10","sbi":"4","sarea":"中壢區","mday":"20240807014317","lat":"24.979567","lng":"121.250102","ar":"文化路長春二路西北側公園旁人行道","sareaen":"Zhongli Dist.","snaen":"Neili Wenhua Park","aren":"Wenhua Rd./Changchun 2nd Rd.","bemp":"5","act":"1"},{"_id":39,"sno":"2063","sna":"萬能科技大學","tot":"20","sbi":"12","sarea":"中壢區","mday":"20240807014328","lat":"24.992749","lng":"121.229925","ar":"萬能路1號(萬芳樓後方人行道)","sareaen":"Zhongli Dist.","snaen":"Vanung University of Technology","aren":"No.1, Changchun 2nd Rd.","bemp":"8","act":"1"},{"_id":40,"sno":"2064","sna":"中德里休閒廣場","tot":"18","sbi":"15","sarea":"桃園區","mday":"20240807014320","lat":"24.962275","lng":"121.293209","ar":"國際一路國際二路口西南側停車場","sareaen":"Taoyuan Dist.","snaen":"Zhongde Square","aren":"Guoji 1st Rd./Guoji 2nd Rd.","bemp":"3","act":"1"},{"_id":41,"sno":"2065","sna":"桃園巨蛋","tot":"18","sbi":"2","sarea":"桃園區","mday":"20240807014317","lat":"24.995393","lng":"121.323924","ar":"三民路100號對面人行道","sareaen":"Taoyuan Dist.","snaen":"Taoyuan Arena","aren":"No.100, Sanmin Rd.(opposite)","bemp":"16","act":"1"},{"_id":42,"sno":"2066","sna":"龜山區公所","tot":"10","sbi":"2","sarea":"龜山區","mday":"20240807014320","lat":"24.992532","lng":"121.337660","ar":"中山街26號前方人行道","sareaen":"Guishan Dist.","snaen":"Civil Affairs Office of Guishan District","aren":"No.26, Zhongshan St.","bemp":"8","act":"1"},{"_id":43,"sno":"2067","sna":"龜山國中","tot":"12","sbi":"0","sarea":"龜山區","mday":"20240807014333","lat":"24.997536","lng":"121.339485","ar":"自強西路66號前方人行道","sareaen":"Guishan Dist.","snaen":"Guishan Junior High School","aren":"No.66, Ziqiang W. Rd.","bemp":"0","act":"0"},{"_id":44,"sno":"2068","sna":"西門綠園","tot":"10","sbi":"1","sarea":"桃園區","mday":"20240807014340","lat":"24.993968","lng":"121.303884","ar":"文康街61號對面人行道","sareaen":"Taoyuan Dist.","snaen":"Ximen Greens","aren":"No.61, Wenkang St.(opposite)","bemp":"9","act":"1"},{"_id":45,"sno":"2069","sna":"衛福部桃園醫院","tot":"10","sbi":"2","sarea":"桃園區","mday":"20240807014327","lat":"24.979389","lng":"121.268981","ar":"龍壽街60號對面人行道","sareaen":"Taoyuan Dist.","snaen":"Taoyuan General Hospital, Ministry of Health and Welfare","aren":"No.60, Longshou St.(opposite)","bemp":"8","act":"1"},{"_id":46,"sno":"2070","sna":"環中東永福路口","tot":"10","sbi":"0","sarea":"中壢區","mday":"20240807014329","lat":"24.962030","lng":"121.255168","ar":"環中東路325號前人行道","sareaen":"Zhongli Dist.","snaen":"Huanzhong E. &amp; Yongfu Rd. Intersection","aren":"No.325, Huanzhong E. Rd.","bemp":"0","act":"0"},{"_id":47,"sno":"2079","sna":"忠孝兒童遊樂場","tot":"12","sbi":"1","sarea":"桃園區","mday":"20240807014323","lat":"24.986849","lng":"121.294739","ar":"宏昌七街泰昌三街西南側廣場","sareaen":"Taoyuan Dist.","snaen":"Zhongxiao Children's Playground","aren":"Hongchang 7th St./Taichang 3rd St.","bemp":"9","act":"1"},{"_id":48,"sno":"2080","sna":"桃園市政府","tot":"18","sbi":"3","sarea":"桃園區","mday":"20240807014340","lat":"24.992799","lng":"121.301680","ar":"縣府路3號對面廣場","sareaen":"Taoyuan Dist.","snaen":"Taoyuan City Government","aren":"No.3, Xianfu Rd.(opposite)","bemp":"15","act":"1"},{"_id":49,"sno":"2082","sna":"中壢新興公園","tot":"8","sbi":"5","sarea":"中壢區","mday":"20240807014333","lat":"24.945265","lng":"121.226050","ar":"林森路90號前方人行道","sareaen":"Zhongli Dist.","snaen":"Zhongli Xinxing Park","aren":"No.90, Linsen Rd.","bemp":"3","act":"1"},{"_id":50,"sno":"2083","sna":"桃園市立圖書館內壢分館","tot":"14","sbi":"1","sarea":"中壢區","mday":"20240807014325","lat":"24.977945","lng":"121.257972","ar":"光華三街10號前方人行道","sareaen":"Zhongli Dist.","snaen":"Taoyuan Public Library Neili Branch","aren":"No.10, Guanghua 3rd St.","bemp":"12","act":"1"},{"_id":51,"sno":"2085","sna":"中央大學依仁堂","tot":"14","sbi":"2","sarea":"中壢區","mday":"20240807014334","lat":"24.967119","lng":"121.190958","ar":"中大路300號(松苑餐廳前方廣場)","sareaen":"Zhongli Dist.","snaen":"Office of Physical Education, NCU","aren":"No.300, Zhongda Rd.","bemp":"11","act":"1"},{"_id":52,"sno":"2095","sna":"璟都江山社區","tot":"8","sbi":"6","sarea":"龜山區","mday":"20240807014332","lat":"25.0023","lng":"121.342803","ar":"光峰路131巷6號前方人行道","sareaen":"Guishan Dist.","snaen":"Jingdu-Jiangshan Community","aren":"No.6, Ln. 131, Guangfeng Rd.","bemp":"2","act":"1"},{"_id":53,"sno":"2106","sna":"篤行公園","tot":"8","sbi":"3","sarea":"中壢區","mday":"20240807014328","lat":"24.958288","lng":"121.263280","ar":"永福路47號對面人行道","sareaen":"Zhongli Dist.","snaen":"Duxing Park","aren":"No.47, Yongfu Rd.(opposite)","bemp":"5","act":"1"},{"_id":54,"sno":"2107","sna":"桃園市政府警察局桃園分局","tot":"10","sbi":"5","sarea":"桃園區","mday":"20240807014321","lat":"25.000418","lng":"121.299434","ar":"永安路375號旁人行道","sareaen":"Taoyuan Dist.","snaen":"Taoyuan Police Department Taoyuan Branch","aren":"No.375, Yong&rsquo;an Rd.","bemp":"4","act":"1"},{"_id":55,"sno":"2108","sna":"慈文國中","tot":"12","sbi":"6","sarea":"桃園區","mday":"20240807014320","lat":"25.008916","lng":"121.301842","ar":"中正路835號前方人行道","sareaen":"Taoyuan Dist.","snaen":"Tzu Wen Junior High School","aren":"No.835, Zhongzheng Rd.","bemp":"5","act":"1"},{"_id":56,"sno":"2109","sna":"同新公園","tot":"12","sbi":"4","sarea":"桃園區","mday":"20240807014323","lat":"25.012389","lng":"121.305633","ar":"同安街經國路251巷口(東南側人行道)","sareaen":"Taoyuan Dist.","snaen":"Tongxin Park","aren":"Tong&rsquo;an St./Ln. 251, Jingguo Rd.","bemp":"7","act":"1"},{"_id":57,"sno":"2110","sna":"桃園永康公園","tot":"8","sbi":"5","sarea":"桃園區","mday":"20240807014347","lat":"25.001890","lng":"121.302925","ar":"力行路中正五街口東南側人行道","sareaen":"Taoyuan Dist.","snaen":"Taoyuan Yongkang Park","aren":"Lixing Rd./Zhongzheng 5th St.","bemp":"3","act":"1"},{"_id":58,"sno":"2111","sna":"桃園市立游泳池","tot":"10","sbi":"1","sarea":"桃園區","mday":"20240807014331","lat":"24.989458","lng":"121.292088","ar":"吉昌街86號(對面人行道)","sareaen":"Taoyuan Dist.","snaen":"Taoyuan City Swimming Pool","aren":"No.86, Jichang St.(opposite)","bemp":"9","act":"1"},{"_id":59,"sno":"2112","sna":"寶山公園","tot":"14","sbi":"6","sarea":"桃園區","mday":"20240807014323","lat":"25.013132","lng":"121.313903","ar":"民有三街517號對面公園旁人行道","sareaen":"Taoyuan Dist.","snaen":"Baoshan Park","aren":"No.517, Minyou 3rd St.(opposite)","bemp":"8","act":"1"},{"_id":60,"sno":"2113","sna":"國強一街上海路口","tot":"12","sbi":"8","sarea":"桃園區","mday":"20240807014317","lat":"24.992059","lng":"121.282126","ar":"國強一街上海路口西北側高架橋下廣場","sareaen":"Taoyuan Dist.","snaen":"Guochiang 1st St. &amp; Shanghai Rd. Intersection","aren":"Guoqiang 1st St./Shanghai Rd.","bemp":"4","act":"1"},{"_id":61,"sno":"2114","sna":"青溪公園","tot":"10","sbi":"4","sarea":"桃園區","mday":"20240807014337","lat":"25.000959","lng":"121.317024","ar":"自強路217號前方人行道","sareaen":"Taoyuan Dist.","snaen":"Qingxi Park","aren":"No.217, Ziqiang Rd.","bemp":"6","act":"1"},{"_id":62,"sno":"2115","sna":"甲蟲公園","tot":"8","sbi":"3","sarea":"中壢區","mday":"20240807014339","lat":"24.977542","lng":"121.252751","ar":"元生二街元生三街口西北側公園旁人行道","sareaen":"Zhongli Dist.","snaen":"Jiachong Park","aren":"Yuansheng 2nd St./Yuansheng 3rd St.","bemp":"5","act":"1"},{"_id":63,"sno":"2117","sna":"新榮公園","tot":"8","sbi":"4","sarea":"平鎮區","mday":"20240807014340","lat":"24.945991","lng":"121.214981","ar":"振興西路新德街口西北側公園旁人行道","sareaen":"Pingzhen Dist.","snaen":"Xinrong Park","aren":"Zhenxing W. Rd./Xinde St.","bemp":"4","act":"1"},{"_id":64,"sno":"2120","sna":"龜山國小","tot":"14","sbi":"0","sarea":"龜山區","mday":"20240807014325","lat":"24.994765","lng":"121.340557","ar":"大同路23號對面人行道","sareaen":"Guishan Dist.","snaen":"Guishan Elementary School","aren":"No.23, Datong Rd.(opposite)","bemp":"14","act":"1"},{"_id":65,"sno":"2123","sna":"大同公園","tot":"12","sbi":"0","sarea":"龜山區","mday":"20240807014339","lat":"24.989332","lng":"121.342481","ar":"德明路77巷65號對面公園旁人行道","sareaen":"Guishan Dist.","snaen":"Datong Park","aren":"No.65, Ln. 77, Deming Rd.(opposite)","bemp":"11","act":"1"},{"_id":66,"sno":"2127","sna":"桃園龍山國小","tot":"8","sbi":"5","sarea":"桃園區","mday":"20240807014324","lat":"24.981988","lng":"121.271035","ar":"龍祥街94號對面人行道","sareaen":"Taoyuan Dist.","snaen":"Taoyuan Long Shan Elementary School","aren":"No.94, Longxiang St.(opposite)","bemp":"1","act":"1"},{"_id":67,"sno":"2140","sna":"桃園中正公園(同安街)","tot":"14","sbi":"5","sarea":"桃園區","mday":"20240807014320","lat":"25.023701","lng":"121.297919","ar":"同安街601號旁公園人行道","sareaen":"Taoyuan Dist.","snaen":"Taoyuan Zhongzheng Park (Tung'an St.)","aren":"No.601, Tong&rsquo;an St.","bemp":"7","act":"1"},{"_id":68,"sno":"2141","sna":"建新公園","tot":"10","sbi":"4","sarea":"桃園區","mday":"20240807014315","lat":"24.979206","lng":"121.310324","ar":"陽明十二街25號對面公園旁人行道","sareaen":"Taoyuan Dist.","snaen":"Jianxin Park","aren":"No.25, Yangming 12th St.(opposite)","bemp":"5","act":"1"},{"_id":69,"sno":"2143","sna":"平鎮和平公園","tot":"8","sbi":"6","sarea":"平鎮區","mday":"20240807014315","lat":"24.947529","lng":"121.221136","ar":"莒光路39號對面路側","sareaen":"Pingzhen Dist.","snaen":"Pingzhen Heping Park","aren":"No.39, Juguang Rd.(opposite)","bemp":"2","act":"1"},{"_id":70,"sno":"2149","sna":"黎明公園","tot":"6","sbi":"2","sarea":"中壢區","mday":"20240807014321","lat":"24.939894","lng":"121.256127","ar":"同慶路榮民南路口西南側公園前方路側","sareaen":"Zhongli Dist.","snaen":"Liming Park","aren":"Tongqing Rd./Rongmin S. Rd.","bemp":"4","act":"1"},{"_id":71,"sno":"2150","sna":"興仁公園","tot":"10","sbi":"2","sarea":"中壢區","mday":"20240807014339","lat":"24.966256","lng":"121.263548","ar":"興仁路二段120號對面公園內人行道","sareaen":"Zhongli Dist.","snaen":"Xinren Park","aren":"No.120, Sec. 2, Xingren Rd.(opposite)","bemp":"8","act":"1"},{"_id":72,"sno":"2151","sna":"自立新村(榮安一街)","tot":"10","sbi":"1","sarea":"中壢區","mday":"20240807014320","lat":"24.965432","lng":"121.253381","ar":"榮安一街自立三街2巷北側人行道","sareaen":"Zhongli Dist.","snaen":"Zili Community (Rong'an 1st St.)","aren":"Rong&rsquo;an 1st St./Ln. 2, Zili 3rd St.","bemp":"7","act":"1"},{"_id":73,"sno":"2152","sna":"晉元路仁德一街口","tot":"6","sbi":"3","sarea":"中壢區","mday":"20240807014330","lat":"24.950926","lng":"121.261293","ar":"仁德一街28-4號對面路側","sareaen":"Zhongli Dist.","snaen":"Jinyuan Rd. &amp; Rende 1st St. Intersection","aren":"No.28-4, Rende 1st St.(opposite)","bemp":"2","act":"1"},{"_id":74,"sno":"2153","sna":"龍和公園","tot":"8","sbi":"1","sarea":"中壢區","mday":"20240807014330","lat":"24.934221","lng":"121.244805","ar":"龍和三街290號(活動中心旁公園人行道)","sareaen":"Zhongli Dist.","snaen":"Longhe Park","aren":"No.290, Longhe 3rd St.","bemp":"7","act":"1"},{"_id":75,"sno":"2154","sna":"萬壽中興路口","tot":"12","sbi":"1","sarea":"龜山區","mday":"20240807014315","lat":"24.994938","lng":"121.337264","ar":"萬壽路二段981號對面停車場","sareaen":"Guishan Dist.","snaen":"Wanshou &amp; Zhongxin Rd. Interstction","aren":"No.981, Sec. 2, Wanshou Rd.(opposite)","bemp":"11","act":"1"},{"_id":76,"sno":"2155","sna":"大同西路簡易公園","tot":"8","sbi":"2","sarea":"桃園區","mday":"20240807014136","lat":"24.988164","lng":"121.304047","ar":"大同西路7巷4號對面公園","sareaen":"Taoyuan Dist.","snaen":"Datong W. Rd. Simple Park","aren":"No.4, Ln. 7, Datong W. Rd.(opposite)","bemp":"6","act":"1"},{"_id":77,"sno":"2156","sna":"霖園兒童公園","tot":"18","sbi":"6","sarea":"桃園區","mday":"20240807014328","lat":"24.986079","lng":"121.287879","ar":"國鼎二街132號(對面公園東側人行道)","sareaen":"Taoyuan Dist.","snaen":"Linyuan Children's Park","aren":"No.132, Guoding 2nd St.(opposite)","bemp":"11","act":"1"},{"_id":78,"sno":"2157","sna":"家樂福經國店","tot":"12","sbi":"1","sarea":"桃園區","mday":"20240807014324","lat":"25.016383","lng":"121.30502","ar":"天祥三街10號對面人行道","sareaen":"Taoyuan Dist.","snaen":"Carrefour Jingguo Branch","aren":"No.10, Tianxiang 3rd St.(opposite)","bemp":"11","act":"1"},{"_id":79,"sno":"2158","sna":"玉山公園","tot":"14","sbi":"4","sarea":"桃園區","mday":"20240807014324","lat":"24.982621","lng":"121.301174","ar":"南豐二街120號斜前方公園側","sareaen":"Taoyuan Dist.","snaen":"Yushan Park","aren":"No.120, Nanfeng 2nd St.(opposite)","bemp":"10","act":"1"},{"_id":80,"sno":"2159","sna":"會稽國中","tot":"8","sbi":"3","sarea":"桃園區","mday":"20240807014328","lat":"25.016115","lng":"121.313437","ar":"大興路222號(面會稽國中校門左側人行道)","sareaen":"Taoyuan Dist.","snaen":"Kuai Ji Junior High School","aren":"No.222, Daxing Rd.(opposite)","bemp":"5","act":"1"},{"_id":81,"sno":"2165","sna":"經國國中","tot":"8","sbi":"2","sarea":"桃園區","mday":"20240807014329","lat":"25.0217","lng":"121.303596","ar":"經國路276號(面經國國中校門左側人行道)","sareaen":"Taoyuan Dist.","snaen":"Jingguo Junior High School","aren":"No.276, Jingguo Rd.(opposite)","bemp":"6","act":"1"},{"_id":82,"sno":"2169","sna":"風禾公園","tot":"16","sbi":"6","sarea":"桃園區","mday":"20240807014320","lat":"25.000991","lng":"121.289893","ar":"文中二路慈文路口東北側人行道","sareaen":"Taoyuan Dist.","snaen":"Fenghe Park","aren":"Wenzhong 2nd Rd./Ciwen Rd.","bemp":"10","act":"1"},{"_id":83,"sno":"2170","sna":"財政部北區國稅局桃園分局","tot":"6","sbi":"2","sarea":"桃園區","mday":"20240807014328","lat":"25.003782","lng":"121.320733","ar":"三元街150號","sareaen":"Taoyuan Dist.","snaen":"National Taxation Bureau of the Nothern Area, Ministry of Finance (Taoyuan Branch)","aren":"No.150, Sanyuan St.","bemp":"3","act":"1"},{"_id":84,"sno":"2171","sna":"桃園觀光夜市旅客服務中心","tot":"12","sbi":"1","sarea":"桃園區","mday":"20240807014342","lat":"25.004089","lng":"121.308517","ar":"正康三街8號旁停車場","sareaen":"Taoyuan Dist.","snaen":"Taoyuan Tourist Night Market Service Center","aren":"No.8, Zhengkang 3rd St.","bemp":"10","act":"1"},{"_id":85,"sno":"2176","sna":"常樂公園","tot":"10","sbi":"1","sarea":"中壢區","mday":"20240807014332","lat":"24.976881","lng":"121.250856","ar":"文化二路237-243號旁公園人行道","sareaen":"Zhongli Dist.","snaen":"Changle Park","aren":"No.237-243, Wenhua 2nd Rd.","bemp":"9","act":"1"},{"_id":86,"sno":"2177","sna":"金鋒太子","tot":"6","sbi":"1","sarea":"中壢區","mday":"20240807014338","lat":"24.945911","lng":"121.248625","ar":"金鋒四街50巷2號對面","sareaen":"Zhongli Dist.","snaen":"Jinfeng Prince","aren":"No.2, Ln. 50, Jinfeng 4th St.(opposite)","bemp":"5","act":"1"},{"_id":87,"sno":"2178","sna":"華愛兒童公園","tot":"8","sbi":"1","sarea":"中壢區","mday":"20240807014318","lat":"24.952303","lng":"121.259724","ar":"華愛街35號對面公園旁人行道","sareaen":"Zhongli Dist.","snaen":"Hua-Ai Children's Park","aren":"Hua-Ai Children's Park","bemp":"7","act":"1"},{"_id":88,"sno":"2181","sna":"過嶺國中","tot":"6","sbi":"2","sarea":"中壢區","mday":"20240807014321","lat":"24.960203","lng":"121.175517","ar":"松智路過嶺路一段路口人行道","sareaen":"Zhongli Dist.","snaen":"Guo Ling Junior High School","aren":"Songzhi Rd./Sec. 1, Guoling Rd.","bemp":"3","act":"1"},{"_id":89,"sno":"2182","sna":"南方莊園","tot":"6","sbi":"1","sarea":"中壢區","mday":"20240807014324","lat":"24.967284","lng":"121.177906","ar":"樹籽路8號對面停車場旁人行道","sareaen":"Zhongli Dist.","snaen":"Nanfang Park","aren":"No.8, Shuzi Rd.(opposite)","bemp":"5","act":"1"},{"_id":90,"sno":"2184","sna":"陸光河濱公園","tot":"20","sbi":"7","sarea":"龜山區","mday":"20240807014344","lat":"24.99485","lng":"121.330472","ar":"同心二路19號對面公園內人行道","sareaen":"Guishan Dist.","snaen":"Luguang Riverside Park","aren":"No.19, Tongxin 2nd Rd.(opposite)","bemp":"13","act":"1"},{"_id":91,"sno":"2185","sna":"山福里集會所","tot":"8","sbi":"1","sarea":"龜山區","mday":"20240807014333","lat":"24.988965","lng":"121.331988","ar":"中興路152號旁停車場","sareaen":"Guishan Dist.","snaen":"Shanfu Civil Activity Center","aren":"No.152, Zhongxing Rd.","bemp":"7","act":"1"},{"_id":92,"sno":"2186","sna":"大檜溪公園","tot":"6","sbi":"2","sarea":"桃園區","mday":"20240807014337","lat":"25.013781","lng":"121.31682","ar":"興一街65巷50號(地下停車場出入口旁公園)","sareaen":"Taoyuan Dist.","snaen":"Dakuaixi Park","aren":"No.50, Ln. 65, Xing 1st St.","bemp":"4","act":"1"},{"_id":93,"sno":"2204","sna":"溫州公園","tot":"8","sbi":"3","sarea":"桃園區","mday":"20240807014345","lat":"25.008","lng":"121.29825","ar":"大興西路二段139巷173號旁公園人行道","sareaen":"Taoyuan Dist.","snaen":"Wenzhou Park","aren":"No.173, Ln. 139, Sec. 2, Daxing W. Rd.","bemp":"5","act":"1"},{"_id":94,"sno":"2209","sna":"楓樹公園","tot":"22","sbi":"2","sarea":"龜山區","mday":"20240807014216","lat":"25.00465","lng":"121.34496","ar":"楓樹一街19號對面公園","sareaen":"Guishan Dist.","snaen":"Fengshu park","aren":"No.19, Fengshu 1st St.(opposite)","bemp":"18","act":"1"},{"_id":95,"sno":"2213","sna":"龍安公園","tot":"6","sbi":"2","sarea":"桃園區","mday":"20240807014338","lat":"24.99153","lng":"121.27619","ar":"國豐七街122號對面公園","sareaen":"Taoyuan Dist.","snaen":"Longan Park","aren":"No.122, Guofeng 7th St.(oppsite)","bemp":"4","act":"1"},{"_id":96,"sno":"2221","sna":"大江購物中心","tot":"12","sbi":"1","sarea":"中壢區","mday":"20240807014341","lat":"25.00127","lng":"121.22939","ar":"中園路二段501號前方人行道","sareaen":"Zhongli Dist.","snaen":"Metrowalk","aren":"No.501, Sec. 2, Zhongyuan Rd.","bemp":"11","act":"1"},{"_id":97,"sno":"2225","sna":"永定二保定三街89巷口","tot":"8","sbi":"2","sarea":"桃園區","mday":"20240807014329","lat":"24.99746","lng":"121.298213","ar":"永定二街保定三街89巷口公園內","sareaen":"Taoyuan Dist.","snaen":"Yongding 2nd &amp; Ln. 89, Baoding 3rd St. Intersection","aren":"Yongding 2nd St./Ln. 89, Baoding 3rd St.","bemp":"5","act":"1"},{"_id":98,"sno":"2228","sna":"龍岡圓環","tot":"6","sbi":"3","sarea":"中壢區","mday":"20240807014336","lat":"24.926002","lng":"121.244046","ar":"龍東路龍岡路三段路口","sareaen":"Zhongli Dist.","snaen":"Longgang Roundabout","aren":"Longdong Rd./Sec. 3, Longgang Rd.","bemp":"3","act":"1"},{"_id":99,"sno":"2229","sna":"成功國小","tot":"6","sbi":"2","sarea":"桃園區","mday":"20240807014328","lat":"24.999511","lng":"121.306346","ar":"中正三街與長春路口","sareaen":"Taoyuan Dist.","snaen":"Chenggong Elementary School","aren":"Zhongzheng 3rd St./ Changchun Rd.","bemp":"4","act":"1"},{"_id":100,"sno":"2233","sna":"內厝社區活動中心","tot":"16","sbi":"5","sarea":"中壢區","mday":"20240807014225","lat":"24.989317","lng":"121.179425","ar":"中正路四段112號前方路側","sareaen":"Zhongli Dist.","snaen":"Neicuo Activity Center","aren":"No.112, Sec. 4, Zhongzheng Rd.","bemp":"10","act":"1"}],"fields":[{"id":"_id","type":"int"},{"id":"sno","type":"text"},{"id":"sna","type":"text"},{"id":"tot","type":"text"},{"id":"sbi","type":"text"},{"id":"sarea","type":"text"},{"id":"mday","type":"text"},{"id":"lat","type":"text"},{"id":"lng","type":"text"},{"id":"ar","type":"text"},{"id":"sareaen","type":"text"},{"id":"snaen","type":"text"},{"id":"aren","type":"text"},{"id":"bemp","type":"text"},{"id":"act","type":"text"}],"total":162,"total_was_estimated":false,"limit":100}}